palestine,City,Country,Latitude,Longitude,Max Temperature,Humidity,Cloudiness,Wind Speed,Current Description
0,Zaysan,KZ,47.4667,84.8667,0.73,89,85,0.63,overcast clouds
1,Hithadhoo,MV,-0.6,73.0833,81.64,76,42,12.86,light rain
2,Paita,PE,-5.0892,-81.1144,75.54,74,69,12.82,broken clouds
3,Leningradskiy,RU,69.3833,178.4167,-23.17,85,100,8.05,overcast clouds
4,Hermanus,ZA,-34.4187,19.2345,64.99,81,72,3.0,broken clouds
5,Mataura,NZ,-46.1927,168.8643,70.48,36,0,0.94,clear sky
6,Ushuaia,AR,-54.8,-68.3,42.8,75,75,17.27,broken clouds
7,Begoro,GH,6.3871,-0.3774,70.84,92,30,2.66,scattered clouds
8,Touros,BR,-5.1989,-35.4608,78.8,78,20,3.44,few clouds
9,Bluff,NZ,-46.6,168.3333,54.3,72,0,14.85,clear sky
10,Albany,US,42.6001,-73.9662,10.99,50,6,5.99,clear sky
11,Shakiso,ET,5.75,38.9167,52.34,65,0,3.62,clear sky
12,Airai,TL,-8.9266,125.4092,63.9,100,100,4.07,overcast clouds
13,Sitka,US,57.0531,-135.33,37.4,56,90,10.36,light snow
14,Hilo,US,19.7297,-155.09,73.4,88,90,3.44,moderate rain
15,Baykit,RU,61.67,96.37,-40.02,74,97,4.45,overcast clouds
16,Ribeira Grande,PT,38.5167,-28.7,61.07,82,91,25.21,overcast clouds
17,Yerbogachen,RU,61.2767,108.0108,-43.96,78,52,5.64,broken clouds
18,Avarua,CK,-21.2078,-159.775,84.2,70,57,5.75,light rain
19,Shieli,KZ,44.1667,66.75,28.53,81,85,6.78,overcast clouds
20,Tecoanapa,MX,16.5167,-98.75,77.23,77,98,3.27,overcast clouds
21,Fengzhen,CN,40.4394,113.1536,23.79,80,0,10.58,clear sky
22,Port Lincoln,AU,-34.7333,135.8667,67.66,54,27,13.35,scattered clouds
23,Nautla,MX,20.2167,-96.7833,66.38,81,100,3.74,overcast clouds
24,Saskylakh,RU,71.9167,114.0833,-38.6,76,0,2.42,clear sky
25,Punta Arenas,CL,-53.15,-70.9167,46.4,81,90,19.57,overcast clouds
26,Wolgast,DE,54.05,13.7667,32.0,91,100,7.47,light snow
27,Tisul,RU,55.7611,88.3122,-10.91,89,100,9.33,overcast clouds
28,Yerofey Pavlovich,RU,53.9667,121.9667,-22.83,78,0,1.92,clear sky
29,Bahia Blanca,AR,-38.7196,-62.2724,65.17,59,70,10.51,broken clouds
30,Cape Town,ZA,-33.9258,18.4232,70.0,88,40,4.61,scattered clouds
31,Dicabisagan,PH,17.0818,122.4157,70.54,78,97,12.8,overcast clouds
32,East London,ZA,-33.0153,27.9116,69.51,71,27,2.53,scattered clouds
33,Jamestown,US,42.097,-79.2353,19.0,79,90,13.8,light snow
34,Tuatapere,NZ,-46.1333,167.6833,64.99,46,0,6.29,clear sky
35,Butaritari,KI,3.0707,172.7902,80.46,78,99,15.39,light rain
36,Woodburn,US,45.1437,-122.8554,45.0,76,90,5.75,overcast clouds
37,Khatanga,RU,71.9667,102.5,-42.93,75,0,3.51,clear sky
38,Naliya,IN,23.2667,68.8333,61.02,45,0,8.9,clear sky
39,Guerrero Negro,MX,27.9769,-114.0611,60.24,77,5,16.08,clear sky
40,Etchoropo,MX,26.7667,-109.6667,64.0,72,100,1.01,overcast clouds
41,Shimoda,JP,34.6667,138.95,44.6,49,40,4.61,scattered clouds
42,Leh,IN,34.1667,77.5833,-0.13,64,0,1.32,clear sky
43,Bandarbeyla,SO,9.4942,50.8122,72.86,73,26,11.18,scattered clouds
44,Atuona,PF,-9.8,-139.0333,78.46,80,11,17.34,few clouds
45,Killeen,US,31.1171,-97.7278,59.0,67,1,8.05,clear sky
46,Sisimiut,GL,66.9395,-53.6735,8.19,83,0,9.86,clear sky
47,Rikitea,PF,-23.1203,-134.9692,80.47,70,31,9.06,scattered clouds
48,Shikarpur,PK,27.9571,68.6379,44.6,87,0,4.56,mist
49,Venkatagiri,IN,13.9667,79.5833,69.8,83,40,0.85,mist
50,Hamilton,US,39.1834,-84.5333,28.0,68,1,3.44,clear sky
51,Vaini,TO,-21.2,-175.2,80.6,89,90,21.47,light rain
52,Talnakh,RU,69.4865,88.3972,-31.59,65,4,2.89,clear sky
53,Bredasdorp,ZA,-34.5322,20.0403,67.89,75,95,4.34,overcast clouds
54,Bambous Virieux,MU,-20.3428,57.7575,79.0,89,75,4.61,broken clouds
55,Saint-Philippe,RE,-21.3585,55.7679,77.0,61,0,6.91,clear sky
56,Wana,PK,32.2989,69.5725,40.06,57,0,2.42,clear sky
57,Shitkino,RU,56.3703,98.3543,-15.45,87,100,3.49,overcast clouds
58,Merauke,ID,-8.4667,140.3333,83.12,80,100,16.11,overcast clouds
59,Champerico,GT,14.3,-91.9167,66.0,94,37,6.44,scattered clouds
60,Tuktoyaktuk,CA,69.4541,-133.0374,-36.4,67,1,2.3,clear sky
61,Upernavik,GL,72.7868,-56.1549,-8.73,84,0,10.0,clear sky
62,Tiksi,RU,71.6872,128.8694,-31.5,84,100,4.81,overcast clouds
63,Busselton,AU,-33.65,115.3333,80.01,49,0,3.0,clear sky
64,Faya,SA,18.3851,42.4509,53.6,29,0,1.36,clear sky
65,Saldanha,ZA,-33.0117,17.9442,64.63,88,29,11.95,scattered clouds
66,Port-Gentil,GA,-0.7193,8.7815,80.28,82,100,8.28,overcast clouds
67,Beringovskiy,RU,63.05,179.3167,-17.07,83,0,9.64,clear sky
68,Cairns,AU,-16.9167,145.7667,89.01,66,40,19.57,scattered clouds
69,Geraldton,AU,-28.7667,114.6,96.8,17,0,20.71,clear sky
70,Lebu,CL,-37.6167,-73.65,57.04,90,96,6.06,overcast clouds
71,Longyearbyen,SJ,78.2186,15.6401,-0.4,50,20,19.57,few clouds
72,Severo-Kurilsk,RU,50.6789,156.125,24.76,90,100,16.06,overcast clouds
73,Pailon,BO,-17.65,-62.75,75.2,88,90,12.66,overcast clouds
74,Newburn,GB,54.9876,-1.7442,37.99,93,75,4.61,broken clouds
75,Kirensk,RU,57.7853,108.1119,-35.5,79,44,3.56,scattered clouds
76,Luderitz,NA,-26.6481,15.1594,65.17,53,0,22.37,clear sky
77,Masvingo,ZW,-20.0637,30.8277,66.6,97,100,2.86,light rain
78,Mashhad,IR,36.297,59.6062,42.8,49,0,4.61,clear sky
79,Darnah,LY,32.767,22.6367,60.35,63,34,21.32,scattered clouds
80,Walvis Bay,NA,-22.9575,14.5053,66.99,82,16,9.22,few clouds
81,Nanortalik,GL,60.1432,-45.2371,32.13,91,99,8.5,overcast clouds
82,Ahipara,NZ,-35.1667,173.1667,67.82,66,71,3.94,broken clouds
83,Abu Samrah,SY,35.3029,37.1841,42.69,72,7,14.58,clear sky
84,Provideniya,RU,64.3833,-173.3,-7.46,81,3,4.32,clear sky
85,Alta Floresta,BR,-9.8756,-56.0861,72.3,95,97,1.34,overcast clouds
86,Caravelas,BR,-17.7125,-39.2481,74.88,87,0,4.43,clear sky
87,Thunder Bay,CA,48.4001,-89.3168,3.99,78,1,2.3,clear sky
88,Kodiak,US,57.79,-152.4072,35.6,64,75,21.85,broken clouds
89,Hobart,AU,-42.8794,147.3294,72.0,64,75,10.36,broken clouds
90,Chuy,UY,-33.6971,-53.4616,67.73,92,4,1.74,clear sky
91,Yellowknife,CA,62.456,-114.3525,-18.0,76,1,9.22,clear sky
92,Changchun,CN,43.88,125.3228,-0.4,71,82,8.95,broken clouds
93,Pangnirtung,CA,66.1451,-65.7125,-9.4,77,1,5.75,clear sky
94,Berezhany,UA,49.45,24.9333,28.58,96,100,8.86,overcast clouds
95,Port Said,EG,31.2565,32.2841,53.6,66,40,13.8,scattered clouds
96,Arraial Do Cabo,BR,-22.9661,-42.0278,77.0,83,47,25.1,scattered clouds
97,Laiyang,CN,36.9758,120.7136,44.01,76,0,4.12,clear sky
98,Otane,NZ,-39.8833,176.6333,64.0,59,86,1.01,overcast clouds
99,Biak,ID,-0.9131,122.8766,83.86,60,100,0.74,overcast clouds
100,Alofi,NU,-19.0595,-169.9187,80.6,83,100,9.22,moderate rain
101,Kapaa,US,22.0752,-159.319,75.2,73,75,16.11,light rain
102,Edson,CA,53.5835,-116.4356,5.0,92,1,2.3,clear sky
103,Mulege,MX,26.8833,-111.9833,58.3,75,35,1.36,scattered clouds
104,Yelizovo,RU,53.1873,158.3805,24.8,50,100,15.66,overcast clouds
105,Ostrovnoy,RU,68.0531,39.5131,8.42,94,100,16.93,light snow
106,Lucea,JM,18.451,-78.1736,75.0,83,75,5.75,broken clouds
107,Georgetown,MY,5.4112,100.3354,82.99,65,20,8.05,few clouds
108,Souillac,MU,-20.5167,57.5167,78.8,89,75,4.61,broken clouds
109,Mecca,SA,21.4267,39.8261,64.02,48,0,9.8,clear sky
110,Barrow,US,71.2906,-156.7887,-9.4,70,90,10.36,overcast clouds
111,Vila Velha,BR,-20.3297,-40.2925,78.8,78,40,5.75,scattered clouds
112,Brae,GB,60.3964,-1.353,33.8,75,29,8.05,scattered clouds
113,Prenzlau,DE,53.3167,13.8667,30.99,82,100,9.8,light snow
114,Tsiroanomandidy,MG,-18.7667,46.0333,65.93,95,5,2.37,clear sky
115,Chipinge,ZW,-20.1883,32.6236,63.32,100,23,3.89,few clouds
116,Klaksvik,FO,62.2266,-6.589,32.0,74,90,2.3,overcast clouds
117,Bengkulu,ID,-3.8004,102.2655,84.69,63,100,2.35,overcast clouds
118,Hofn,IS,64.2539,-15.2082,32.32,80,54,5.61,broken clouds
119,Labuhan,ID,-6.8844,112.2051,79.27,86,100,16.6,overcast clouds
120,Salalah,OM,17.0151,54.0924,69.8,64,40,4.61,scattered clouds
121,Puerto Ayora,EC,-0.7393,-90.3518,78.01,91,44,5.99,light rain
122,Teya,RU,60.3778,92.6267,-37.44,77,73,3.8,broken clouds
123,Grand Gaube,MU,-20.0064,57.6608,79.0,82,2,1.01,clear sky
124,Zhangye,CN,38.9342,100.4517,26.28,69,0,7.56,clear sky
125,Nikolskoye,RU,59.7035,30.7861,30.2,93,90,8.95,light snow
126,Platanos,GR,37.6667,21.6167,57.2,88,100,3.44,overcast clouds
127,Ouadda,CF,8.0777,22.4007,71.31,20,38,8.5,scattered clouds
128,Idrinskoye,RU,54.3708,92.1358,16.18,94,100,10.85,overcast clouds
129,Inhambane,MZ,-23.865,35.3833,77.14,86,79,3.6,broken clouds
130,Chaihe,CN,44.7667,129.7,-4.7,89,98,1.66,overcast clouds
131,Balsas,BR,-7.5325,-46.0356,74.52,84,99,3.18,light rain
132,Kathmandu,NP,27.7167,85.3167,41.0,87,20,2.3,mist
133,Acarau,BR,-2.8856,-40.12,79.38,83,100,12.75,overcast clouds
134,Igrim,RU,63.1906,64.4162,-21.28,85,100,6.89,overcast clouds
135,Hasaki,JP,35.7333,140.8333,43.0,24,20,19.57,few clouds
136,Cranbourne,AU,-38.1,145.2833,70.0,68,89,5.01,overcast clouds
137,Nyagan,RU,62.1406,65.3936,-21.28,85,100,8.77,overcast clouds
138,Torbay,CA,47.6666,-52.7314,28.99,93,90,19.57,overcast clouds
139,Bonthe,SL,7.5264,-12.505,77.2,88,3,3.74,clear sky
140,Mehamn,NO,71.0357,27.8492,24.17,96,100,18.54,light snow
141,Kaitangata,NZ,-46.2817,169.8464,57.99,72,36,10.0,scattered clouds
142,Puqi,CN,29.7167,113.8833,50.9,62,100,1.45,overcast clouds
143,Suez,EG,29.9737,32.5263,47.88,67,0,2.71,clear sky
144,Buchanan,LR,5.8808,-10.0467,77.0,94,40,4.68,mist
145,Bantogon,PH,6.5333,124.0333,82.71,64,62,4.74,broken clouds
146,Bethel,US,41.3712,-73.414,14.0,52,1,8.05,clear sky
147,Meadow Lake,US,34.8014,-106.5436,48.2,40,75,16.11,broken clouds
148,Victoria,HK,22.2855,114.1577,66.0,65,0,1.99,clear sky
149,Le Mars,US,42.7942,-96.1656,30.0,93,90,17.27,overcast clouds
150,Krasnoselkup,RU,65.7,82.4667,-34.73,79,16,2.59,few clouds
151,Sosnovoborsk,RU,56.1325,93.3589,-2.2,78,40,11.18,snow
152,Clyde River,CA,70.4692,-68.5914,-20.2,83,1,4.61,clear sky
153,Tasiilaq,GL,65.6145,-37.6368,15.8,53,90,25.32,light snow
154,Caibarien,CU,22.5206,-79.4669,66.2,63,40,8.05,scattered clouds
155,Palmer,US,42.1584,-72.3287,12.99,52,20,6.91,few clouds
156,Slave Lake,CA,55.2834,-114.769,3.2,85,1,6.91,clear sky
157,Sri Aman,MY,1.2376,111.4621,78.8,94,40,1.14,light rain
158,Nakusp,CA,50.2499,-117.8023,30.2,93,92,1.14,overcast clouds
159,Tsabong,BW,-26.0217,22.401,73.47,67,7,4.16,clear sky
160,New Norfolk,AU,-42.7826,147.0587,72.0,64,98,1.99,overcast clouds
161,Namibe,AO,-15.1961,12.1522,73.22,75,100,8.52,overcast clouds
162,Katsuura,JP,35.1333,140.3,44.6,26,20,14.97,few clouds
163,Linxia,CN,35.6003,103.2064,27.14,75,100,2.84,overcast clouds
164,Naze,JP,28.3667,129.4833,60.8,48,40,16.11,scattered clouds
165,Margate,GB,51.3813,1.3862,46.99,90,100,7.09,overcast clouds
166,Mitsamiouli,KM,-11.3847,43.2844,82.06,73,80,9.89,broken clouds
167,Norman Wells,CA,65.282,-126.8329,-34.6,67,40,4.23,scattered clouds
168,Nelson Bay,AU,-32.7167,152.15,82.4,65,100,6.91,overcast clouds
169,Olden,NO,61.8364,6.8064,28.0,84,100,4.0,light snow
170,Vostok,RU,46.4856,135.8833,-5.39,87,99,4.09,overcast clouds
171,Port-Cartier,CA,50.0334,-66.8654,10.4,67,0,8.05,clear sky
172,Yumen,CN,40.2833,97.2,26.62,68,0,21.23,clear sky
173,Moerai,PF,-22.4333,-151.3333,81.0,70,12,13.35,light rain
174,Isangel,VU,-19.55,169.2667,87.8,62,40,11.5,scattered clouds
175,Aberdeen,GB,57.1437,-2.0981,28.99,93,52,4.61,broken clouds
176,Port Alfred,ZA,-33.5906,26.891,64.0,86,6,1.99,clear sky
177,Heinola,FI,61.2056,26.0381,24.8,93,90,10.36,light snow
178,Beeskow,DE,52.1667,14.25,28.0,80,100,10.27,light snow
179,Ca Mau,VN,9.1769,105.15,83.59,54,46,8.72,scattered clouds
180,Ruteng,ID,-8.6136,120.4721,68.49,100,97,5.17,overcast clouds
181,Lucapa,AO,-8.4192,20.7447,63.48,98,100,1.72,overcast clouds
182,Ucluelet,CA,48.9329,-125.5528,41.0,93,90,14.97,overcast clouds
183,Pevek,RU,69.7008,170.3133,-29.94,85,16,3.44,few clouds
184,Fortuna,US,40.5982,-124.1573,48.0,81,90,5.75,overcast clouds
185,Stornoway,GB,58.2093,-6.3865,37.4,75,20,9.22,few clouds
186,Poum,NC,-20.2333,164.0167,81.27,72,9,9.04,clear sky
187,Kruisfontein,ZA,-34.0033,24.7314,57.0,89,0,3.76,clear sky
188,Mahebourg,MU,-20.4081,57.7,78.8,89,75,4.61,broken clouds
189,Yukamenskoye,RU,57.8865,52.2416,22.57,98,94,10.83,light snow
190,Nanhai,CN,30.1282,111.7784,54.32,53,68,1.41,broken clouds
191,Pangkalanbuun,ID,-2.6833,111.6167,79.14,79,100,5.35,overcast clouds
192,Shenjiamen,CN,29.9576,122.298,48.02,68,0,12.75,clear sky
193,Santa Barbara,US,34.7333,-120.0343,48.0,87,90,2.28,overcast clouds
194,Qaanaaq,GL,77.484,-69.3632,-13.77,62,0,5.3,clear sky
195,Kurchum,KZ,48.5722,83.6542,-4.77,92,83,1.21,broken clouds
196,Port Elizabeth,ZA,-33.918,25.5701,59.0,82,0,3.44,clear sky
197,Zhaotong,CN,27.3167,103.7167,35.42,86,99,5.64,overcast clouds
198,Whitehorse,CA,60.7161,-135.0538,0.0,78,75,10.36,broken clouds
199,Vrangel,RU,42.7297,133.0839,13.93,82,67,12.39,broken clouds
200,Rio Gallegos,AR,-51.6226,-69.2181,48.2,66,40,12.66,scattered clouds
201,Son La,VN,21.3167,103.9,59.45,76,80,2.95,broken clouds
202,Wilmington,US,34.2257,-77.9447,32.0,64,1,5.12,clear sky
203,San Jeronimo,PE,-11.9472,-75.2829,46.38,81,100,4.61,overcast clouds
204,Japura,ID,-0.3167,102.35,81.37,74,99,4.97,overcast clouds
205,Surovikino,RU,48.6078,42.8486,34.54,88,89,18.07,overcast clouds
206,Castro,BR,-24.7911,-50.0119,62.65,96,100,3.78,light rain
207,Brownsville,US,25.9018,-97.4975,66.2,72,1,8.05,clear sky
208,Mount Isa,AU,-20.7333,139.5,100.4,23,79,10.36,broken clouds
209,Posse,BR,-14.0931,-46.3694,71.46,63,28,4.63,scattered clouds
210,Carnarvon,AU,-24.8667,113.6333,102.2,27,0,21.85,clear sky
211,Rocha,UY,-34.4833,-54.3333,66.11,89,4,2.62,clear sky
212,Yantai,CN,37.5333,121.4,38.89,70,0,5.14,clear sky
213,Broome,US,42.2506,-75.833,10.0,85,90,4.61,mist
214,Mar Del Plata,AR,-38.0023,-57.5575,66.99,88,77,8.86,mist
215,Narasapur,IN,16.45,81.6667,74.82,78,69,5.53,broken clouds
216,Ponta Do Sol,PT,32.6667,-17.1,57.99,76,11,3.0,few clouds
217,Oum Hadjer,TD,13.2954,19.6966,66.13,26,18,10.51,few clouds
218,Atar,MR,20.5169,-13.0499,65.17,27,30,11.34,scattered clouds
219,Nome,US,64.5011,-165.4064,-0.4,55,1,18.41,clear sky
220,Ancud,CL,-41.8697,-73.8203,54.0,71,0,11.5,clear sky
221,Dikson,RU,73.5069,80.5464,-33.39,84,97,7.94,overcast clouds
222,Chokurdakh,RU,70.6333,147.9167,-26.84,85,100,8.88,overcast clouds
223,La Ronge,CA,55.1001,-105.2842,8.6,85,66,4.61,broken clouds
224,Tessalit,ML,20.1986,1.0114,60.1,29,0,11.7,clear sky
225,Durango,MX,24.8333,-104.8333,57.09,57,31,4.68,scattered clouds
226,Sioux Lookout,CA,50.1001,-91.917,8.6,72,75,5.75,broken clouds
227,Duldurga,RU,50.6761,113.5931,-11.36,85,100,2.8,overcast clouds
228,Parauna,BR,-16.9478,-50.4486,70.41,83,98,1.66,overcast clouds
229,Santa Vitoria Do Palmar,BR,-33.5189,-53.3681,68.7,94,0,1.34,clear sky
230,Roche-La-Moliere,FR,45.4341,4.3228,46.4,71,0,8.05,clear sky
231,Mafra,BR,-26.1114,-49.8053,65.48,95,100,2.86,overcast clouds
232,Udachnyy,RU,66.4167,112.4,-35.63,80,100,5.1,overcast clouds
233,Adrar,MR,20.5022,-10.0711,62.69,27,0,10.8,clear sky
234,Tura,IN,25.5198,90.2201,59.22,47,0,1.59,clear sky
235,Cherskiy,RU,68.75,161.3,-33.93,82,9,3.22,clear sky
236,Maniitsoq,GL,65.4167,-52.9,19.92,76,0,4.14,clear sky
237,Phalaborwa,ZA,-23.943,31.1411,71.6,100,79,2.3,broken clouds
238,Ambon,ID,-3.6954,128.1814,89.6,58,20,9.22,few clouds
239,Matadi,CD,-5.8167,13.45,73.78,91,100,0.27,overcast clouds
240,Bayji,IQ,34.9311,43.487,45.99,76,0,5.95,clear sky
241,Ostashkov,RU,57.1467,33.1075,21.6,97,100,7.56,light snow
242,Sao Joao Da Barra,BR,-21.6403,-41.0511,77.68,80,16,21.81,few clouds
243,Samarai,PG,-10.6167,150.6667,84.04,74,100,7.11,overcast clouds
244,Portland,US,45.5234,-122.6762,45.0,76,90,8.05,overcast clouds
245,Juegang,CN,32.3174,121.1855,50.0,58,0,6.6,clear sky
246,Constitucion,CL,-35.3333,-72.4167,61.45,95,100,8.1,overcast clouds
247,Cidreira,BR,-30.1811,-50.2056,75.16,89,39,4.92,scattered clouds
248,Kapoeta,SS,4.7717,33.5903,82.0,33,76,9.53,broken clouds
249,Khawhai,IN,23.3667,93.1167,58.69,36,0,0.31,clear sky
250,North Bend,US,43.4065,-124.2243,44.6,81,90,12.66,overcast clouds
251,Saint-Augustin,CA,51.226,-58.6502,13.35,91,29,11.77,scattered clouds
252,Banda Aceh,ID,5.5577,95.3222,80.42,77,98,15.46,overcast clouds
253,Bakel,SN,14.905,-12.4568,70.61,17,0,8.72,clear sky
254,Deputatskiy,RU,69.3,139.9,-29.11,87,100,2.33,overcast clouds
255,Ossora,RU,59.2353,163.0719,8.37,94,100,16.31,light snow
256,Mizan Teferi,ET,6.9833,35.5833,66.81,61,100,2.86,overcast clouds
257,Kholtoson,RU,50.2981,103.3097,12.31,88,99,3.13,overcast clouds
258,Huai Yot,TH,7.7893,99.6348,84.99,65,20,4.61,few clouds
259,Aksu,CN,41.1231,80.2644,21.34,78,0,2.13,clear sky
260,Peabiru,BR,-23.9128,-52.3431,75.2,88,75,5.75,broken clouds
261,Bubaque,GW,11.2833,-15.8333,78.3,66,0,10.16,clear sky
262,Honningsvag,NO,70.9821,25.9704,24.49,93,100,14.38,overcast clouds
263,Vera Cruz,BR,-12.6333,-41.0333,77.0,69,0,5.75,clear sky
264,Kirakira,SB,-10.4544,161.9205,84.11,75,100,10.71,overcast clouds
265,Machida,JP,35.5403,139.4508,46.0,19,20,3.44,few clouds
266,Ust-Kuyga,RU,70.0167,135.6,-38.88,78,100,0.54,overcast clouds
267,Selenduma,RU,50.9131,106.2406,2.23,89,97,3.24,overcast clouds
268,Atambua,ID,-9.1061,124.8925,78.49,84,100,10.74,overcast clouds
269,Yenagoa,NG,4.9247,6.2642,77.45,92,91,2.62,overcast clouds
270,Coffs Harbour,AU,-30.3,153.1333,80.01,73,90,8.05,overcast clouds
271,Lorengau,PG,-2.0226,147.2712,85.08,75,100,10.69,overcast clouds
272,Santo Antonio Do Ica,BR,-3.1022,-67.9397,74.89,88,9,0.76,clear sky
273,Lata,PT,40.1629,-8.3327,57.99,94,100,1.99,overcast clouds
274,Puerto Carreno,CO,6.189,-67.4859,80.58,60,100,11.3,overcast clouds
275,Tevaitoa,PF,-16.7833,-151.5,80.85,68,100,4.45,light rain
276,Bulri,PK,24.8667,68.3333,56.86,36,0,1.7,clear sky
277,Otradnoye,RU,59.7775,30.8181,30.2,93,90,8.95,light snow
278,Faanui,PF,-16.4833,-151.75,81.0,67,100,4.09,overcast clouds
279,Kajaani,FI,64.2273,27.7285,14.0,85,90,9.22,light snow
280,Litovko,RU,49.2361,135.1742,0.0,87,100,3.47,overcast clouds
281,Puri,IN,19.8,85.85,66.2,82,20,3.94,mist
282,San Quintin,MX,30.4833,-115.95,56.3,77,1,9.06,clear sky
283,Jiexiu,CN,37.0244,111.9125,38.25,56,37,8.46,scattered clouds
284,Ola,RU,59.5833,151.2833,-11.56,82,49,12.77,scattered clouds
285,Saint George,US,37.1041,-113.5841,44.6,65,75,6.91,light rain
286,Hay River,CA,60.8156,-115.7999,-20.2,76,2,1.14,clear sky
287,Kavaratti,IN,10.5669,72.642,80.24,73,2,11.7,clear sky
288,Westport,US,41.1415,-73.3579,19.4,45,1,14.97,clear sky
289,Thaba-Tseka,LS,-29.522,28.6084,51.53,75,93,3.11,overcast clouds
290,Koster,ZA,-25.863,26.8976,61.92,96,94,5.3,light rain
291,Antigonish,CA,45.6169,-61.9986,28.0,78,100,8.99,overcast clouds
292,Vozhega,RU,60.4725,40.2213,15.33,97,100,6.85,overcast clouds
293,Rio Cuarto,AR,-33.1307,-64.3499,66.99,94,93,10.0,overcast clouds
294,Helmond,NL,51.4817,5.6611,37.99,86,90,8.05,overcast clouds
295,Ulaanbaatar,MN,47.9077,106.8832,-2.2,71,40,7.18,scattered clouds
296,Linhares,BR,-19.3911,-40.0722,71.74,94,0,1.34,clear sky
297,Sao Miguel Do Araguaia,BR,-13.275,-50.1628,72.77,89,100,2.89,overcast clouds
298,Alagir,RU,43.0422,44.2222,35.01,93,95,4.47,overcast clouds
299,Padang,ID,-0.9492,100.3543,77.0,88,75,2.3,broken clouds
300,Balykshi,KZ,47.0667,51.8667,21.2,100,77,6.71,mist
301,Novozybkov,RU,52.5396,31.9275,24.8,93,90,15.66,overcast clouds
302,Sorland,NO,67.667,12.6934,29.43,88,86,8.68,overcast clouds
303,Assai,BR,-23.3733,-50.8414,71.6,100,75,9.22,broken clouds
304,Okha,RU,53.5739,142.9478,-0.58,87,100,11.56,overcast clouds
305,Balkhash,KZ,46.844,74.9804,12.2,85,0,15.66,clear sky
306,Viedma,AR,-40.8135,-62.9967,57.99,72,0,11.43,clear sky
307,Yavas,RU,54.4159,42.8491,29.95,98,100,13.85,snow
308,Kourou,GF,5.1552,-52.6478,77.0,100,75,9.22,mist
309,Inuvik,CA,68.3499,-133.7218,-27.4,68,77,2.3,broken clouds
310,Khash,IR,28.2211,61.2158,44.46,45,0,2.51,clear sky
311,Cayenne,GF,4.9333,-52.3333,78.8,94,75,5.75,broken clouds
312,Porbandar,IN,21.6422,69.6093,50.0,76,26,6.91,smoke
313,Zelenoborsk,RU,61.4669,64.0333,-16.26,86,100,8.79,overcast clouds
314,Helena,US,46.5927,-112.0361,34.0,86,75,3.42,mist
315,Sola,VU,-13.8833,167.55,87.8,74,75,5.75,broken clouds
316,Flinders,AU,-34.5833,150.8552,80.01,81,85,4.0,overcast clouds
317,Codrington,AU,-38.2667,141.9667,62.98,71,100,12.41,overcast clouds
318,Mongu,ZM,-15.2484,23.1274,68.27,91,100,3.98,overcast clouds
319,Cururupu,BR,-1.8283,-44.8683,77.09,87,93,4.05,overcast clouds
320,Lagoa,PT,39.05,-27.9833,59.79,82,100,19.1,overcast clouds
321,Napa,US,38.4832,-122.3344,48.99,89,80,2.13,broken clouds
322,Wuxi,CN,31.5689,120.2886,50.0,75,0,7.67,clear sky
323,Linares,CL,-35.85,-71.6,60.93,93,100,2.98,moderate rain
324,Prince Rupert,CA,54.3161,-130.3201,37.4,70,90,8.05,light rain
325,Luganville,VU,-15.5333,167.1667,84.02,74,98,14.65,overcast clouds
326,Gwembe,ZM,-16.4975,27.6069,63.32,95,100,1.57,overcast clouds
327,Zavyalovo,RU,54.5053,82.4484,14.0,79,90,15.66,snow
328,Aykhal,RU,66.0,111.5,-36.2,80,100,7.78,overcast clouds
329,Caxias,PT,38.7031,-9.2767,59.0,100,75,13.8,broken clouds
330,Digri,PK,25.1558,69.1113,57.11,31,0,3.62,clear sky
331,Yuryevets,RU,57.3201,43.1041,22.51,97,92,12.68,light snow
332,Fort Nelson,CA,58.8053,-122.7002,-11.2,77,75,3.44,broken clouds
333,Beitbridge,ZW,-22.2167,30.0,74.16,83,91,11.86,overcast clouds
334,Ilulissat,GL,69.2167,-51.1,-0.4,55,0,4.61,clear sky
335,Krasnoborsk,RU,61.5598,45.934,19.2,97,100,6.11,light snow
336,Uruzgan,AF,32.8333,66.0,36.27,60,29,6.93,scattered clouds
337,Burnie,AU,-41.0667,145.9167,69.01,61,79,20.0,broken clouds
338,Seoul,KR,37.5683,126.9778,32.0,64,20,5.75,few clouds
339,Constantine,DZ,36.365,6.6147,48.2,71,0,2.3,clear sky
340,Zanjan,IR,36.6736,48.4787,34.16,90,95,14.36,overcast clouds
341,Chernyshevskiy,RU,63.0128,112.4714,-42.99,81,68,3.49,broken clouds
342,Whitianga,NZ,-36.8333,175.7,67.28,47,14,11.07,few clouds
343,Yulara,AU,-25.2406,130.9889,89.6,35,100,20.71,overcast clouds
344,Maiduguri,NG,11.8464,13.1603,63.75,38,0,8.61,clear sky
345,Qostanay,KZ,53.1667,63.5833,12.2,79,0,11.18,clear sky
346,New Scone,GB,56.4194,-3.4051,33.01,89,76,1.01,broken clouds
347,Saurimo,AO,-9.6608,20.3916,63.32,96,87,2.57,light rain
348,Thompson,CA,55.7435,-97.8558,10.4,85,90,5.75,light snow
349,Milledgeville,US,33.0801,-83.2321,39.0,74,0,2.91,clear sky
350,Muana,BR,-1.5283,-49.2167,76.15,91,100,6.4,heavy intensity rain
351,Talcahuano,CL,-36.7167,-73.1167,57.2,100,90,8.05,fog
352,Madarounfa,NE,13.3087,7.156,64.92,25,0,12.64,clear sky
353,Mount Pleasant,US,32.7941,-79.8626,41.0,80,1,6.76,clear sky
354,Esperance,AU,-33.8667,121.9,71.6,46,0,10.36,clear sky
355,Kahului,US,20.8947,-156.47,78.8,61,40,24.16,scattered clouds
356,Horodnytsya,UA,50.807,27.3168,18.0,96,67,4.05,broken clouds
357,Nabire,ID,-3.3667,135.4833,79.88,77,100,1.59,overcast clouds
358,Mglin,RU,53.0591,32.8475,19.04,97,100,13.4,overcast clouds
359,Kununurra,AU,-15.7667,128.7333,80.6,100,75,10.36,broken clouds
360,Makakilo City,US,21.3469,-158.0858,80.6,54,40,10.36,scattered clouds
361,Brentwood,US,40.7812,-73.2462,21.0,45,20,18.41,few clouds
362,Nema,RU,57.5067,50.5011,24.58,98,100,7.65,light snow
363,Teknaf,BD,20.8624,92.3058,72.03,37,5,4.05,clear sky
364,Chany,RU,55.3121,76.7647,5.34,94,100,9.04,overcast clouds
365,Te Anau,NZ,-45.4167,167.7167,66.49,44,1,2.59,clear sky
366,Auburn,US,47.3073,-122.2284,44.01,90,100,2.86,overcast clouds
367,Hami,CN,42.8,93.45,26.47,79,0,1.86,clear sky
368,Mehran,IR,33.1222,46.1646,33.8,93,100,4.61,overcast clouds
369,Mount Gambier,AU,-37.8333,140.7667,66.2,68,90,10.36,overcast clouds
370,Olinda,BR,-8.0089,-34.8553,78.8,73,40,6.91,scattered clouds
371,Lavrentiya,RU,65.5833,-171.0,-18.29,81,0,9.73,clear sky
372,Dingle,PH,10.9995,122.6711,76.93,85,100,17.02,overcast clouds
373,Genhe,CN,50.7833,121.5167,-19.57,80,78,2.64,broken clouds
374,Ushumun,RU,52.7833,126.5333,-21.59,86,97,4.81,overcast clouds
375,Naryan-Mar,RU,67.6713,53.087,-8.0,85,100,16.55,overcast clouds
376,Oak Ridge,US,36.0104,-84.2696,32.0,64,1,3.58,clear sky
377,Oranjemund,NA,-28.55,16.4333,60.13,90,2,14.14,clear sky
378,Aripuana,BR,-9.1667,-60.6333,73.06,96,100,1.28,overcast clouds
379,Zabaykalsk,RU,49.6333,117.3167,-18.49,81,75,3.27,broken clouds
380,Yablonovo,RU,50.8523,37.3574,26.6,93,90,11.18,light snow
381,Necochea,AR,-38.5473,-58.7368,66.0,82,80,5.01,broken clouds
382,Tekeli,KZ,44.83,78.8239,26.13,70,0,10.45,clear sky
383,Guaruja,BR,-23.9931,-46.2564,84.99,26,91,3.56,overcast clouds
384,Sawakin,SD,19.1059,37.3321,70.02,62,90,15.28,overcast clouds
385,Cascais,PT,38.6979,-9.4215,59.0,100,100,21.18,overcast clouds
386,Pine Bluff,US,34.2284,-92.0032,48.2,61,90,5.75,overcast clouds
387,Nantucket,US,41.2835,-70.0995,21.2,73,90,25.32,overcast clouds
388,Pastavy,BY,55.1168,26.8326,22.3,97,100,12.41,overcast clouds
389,Kyabe,TD,9.4515,18.9449,72.95,21,0,7.31,clear sky
390,Vardo,NO,70.3705,31.1107,25.95,97,100,17.16,light snow
391,Nouadhibou,MR,20.931,-17.0347,66.2,59,4,14.97,clear sky
392,Mareeba,AU,-17.0,145.4333,89.01,65,96,7.0,overcast clouds
393,Harper,LR,4.375,-7.7169,77.83,87,0,5.55,clear sky
394,Baicheng,CN,45.6167,122.8167,-1.26,77,10,7.09,clear sky
395,Shahreza,IR,32.0339,51.8794,41.29,68,1,16.55,clear sky
396,Fergus Falls,US,46.283,-96.0776,21.99,93,90,19.57,overcast clouds
397,Sao Filipe,CV,14.8961,-24.4956,74.64,55,97,9.78,overcast clouds
398,Hegang,CN,47.4,130.3667,-5.39,82,100,5.73,overcast clouds
399,Kuvandyk,RU,51.4781,57.3552,20.07,96,100,5.01,overcast clouds
400,Ballina,AU,-28.8667,153.5667,82.99,65,75,10.36,broken clouds
401,Siva,EG,29.2041,25.5195,48.87,57,0,7.34,clear sky
402,Egvekinot,RU,66.3167,-179.1667,-21.98,84,0,7.54,clear sky
403,Berlevag,NO,70.8578,29.0864,24.69,95,100,16.51,light snow
404,Havoysund,NO,70.9963,24.6622,19.4,73,20,3.44,few clouds
405,Corrente,BR,-3.7367,-43.3394,73.71,97,100,3.67,overcast clouds
406,Port Hardy,CA,50.6996,-127.4199,42.8,87,90,20.71,light rain
407,Inirida,CO,3.8653,-67.9239,76.55,77,97,1.74,overcast clouds
408,Yarim,YE,14.298,44.3779,45.63,72,0,2.44,clear sky
409,Sjenica,RS,43.2731,19.9994,33.64,93,100,7.54,snow
410,Rawson,AR,-43.3002,-65.1023,57.38,53,0,12.59,clear sky
411,Hastings,GB,50.8552,0.5729,45.0,82,100,1.99,overcast clouds
412,Cabo San Lucas,MX,22.8909,-109.9124,70.0,73,1,4.61,clear sky
413,Hoquiam,US,46.9809,-123.8893,42.8,81,90,14.97,overcast clouds
414,Gat,IL,31.61,34.7642,46.0,100,72,1.99,broken clouds
415,Azare,NG,11.6765,10.1948,62.47,28,0,9.91,clear sky
416,Lahij,YE,13.1667,44.5833,64.33,87,17,3.51,few clouds
417,Omsukchan,RU,62.5333,155.8,-27.69,81,100,6.6,overcast clouds
418,Pingdu,CN,36.7844,119.9464,48.2,46,0,2.24,clear sky
419,Aras,ES,42.5617,-2.356,46.4,93,75,6.91,broken clouds
420,La Rioja,ES,42.25,-2.5,46.4,93,75,6.91,broken clouds
421,Maryborough,AU,-25.5333,152.7,83.79,58,62,9.64,broken clouds
422,Arlit,NE,18.7369,7.3853,55.11,33,0,2.15,clear sky
423,Ilo,PE,-17.6394,-71.3375,68.5,80,1,4.29,clear sky
424,Palauig,PH,15.435,119.9045,80.17,53,20,1.48,few clouds
425,Pareora,NZ,-44.4871,171.2132,64.99,48,26,4.0,scattered clouds
426,Talkha,EG,31.0539,31.3779,44.37,81,16,7.56,few clouds
427,Puma,TZ,-5.0,34.7333,60.06,99,100,5.84,light rain
428,Buraydah,SA,26.326,43.975,51.8,62,0,4.61,clear sky
429,Zonguldak,TR,41.25,31.8333,32.27,88,100,6.6,overcast clouds
430,Gamba,GA,-2.65,10.0,77.58,87,100,6.8,moderate rain
431,Kodinsk,RU,58.6881,99.1844,-32.91,79,99,7.85,overcast clouds
432,Hirara,JP,24.8,125.2833,64.4,55,40,8.05,scattered clouds
433,Grants Pass,US,42.439,-123.3284,42.01,87,75,5.75,broken clouds
434,Krivyanskaya,RU,47.3963,40.1662,39.2,75,0,15.66,clear sky
435,Panguna,PG,-6.3164,155.4848,82.13,71,71,5.39,light rain
436,Chippewa Falls,US,44.9369,-91.3929,24.8,42,1,10.36,clear sky
437,San Patricio,US,28.017,-97.5169,69.8,73,90,8.05,overcast clouds
438,Nishihara,JP,26.1842,127.7558,62.6,39,40,12.66,scattered clouds
439,Alice Springs,AU,-23.7,133.8833,93.0,40,66,14.97,broken clouds
440,Petatlan,MX,17.5167,-101.2667,73.63,80,66,2.46,broken clouds
441,Huarmey,PE,-10.0681,-78.1522,70.9,78,81,7.0,broken clouds
442,Clinton,US,42.587,-82.9199,19.99,79,1,4.5,clear sky
443,Acapulco,MX,16.8634,-99.8901,80.6,83,75,9.22,broken clouds
444,Mercedes,AR,-34.6515,-59.4307,70.0,89,3,4.85,clear sky
445,Port Blair,IN,11.6667,92.75,82.56,71,29,9.82,scattered clouds
446,Dire,ML,12.2833,-10.9667,68.7,22,0,1.25,clear sky
447,Buzdyak,RU,54.5833,54.55,22.03,97,100,7.31,overcast clouds
448,Arman,RU,59.7,150.1667,-12.33,79,37,13.04,scattered clouds
449,Ewa Beach,US,21.3156,-158.0072,80.6,54,40,10.36,scattered clouds
450,Laguna,US,38.421,-121.4238,46.99,81,1,2.24,clear sky
451,Solwezi,ZM,-12.1688,26.3894,59.94,95,97,1.99,overcast clouds
452,Korla,CN,41.7597,86.1469,24.93,78,0,3.65,clear sky
453,Binghamton,US,42.0987,-75.918,10.99,85,90,4.61,mist
454,Non Sang,TH,16.8687,102.5664,75.99,68,2,5.75,clear sky
455,Komsomolskiy,UZ,40.4272,71.7189,26.6,59,41,6.91,scattered clouds
456,Alugan,PH,12.2188,125.4808,78.8,81,100,22.64,overcast clouds
457,Biltine,TD,14.5333,20.9167,66.7,25,0,19.86,clear sky
458,Mazara Del Vallo,IT,37.6641,12.588,59.0,82,20,13.8,few clouds
459,Andenes,NO,69.3143,16.1194,23.0,74,40,10.36,scattered clouds
460,Narsaq,GL,60.9167,-46.05,44.6,29,75,31.07,broken clouds
461,Gemlik,TR,40.4309,29.1597,46.4,65,75,16.11,broken clouds
462,Santa Cruz,BO,-17.8,-63.1667,75.2,88,90,12.66,overcast clouds
463,Galway,IE,53.2719,-9.0489,44.6,81,90,18.41,moderate rain
464,Krasnogvardeyskiy,RU,57.3793,62.3195,9.46,95,82,7.7,broken clouds
465,Kirkuk,IQ,35.4681,44.3922,43.61,88,2,4.7,clear sky
466,Puro,PH,12.4841,123.3827,76.19,80,100,20.78,overcast clouds
467,Kalach-Na-Donu,RU,48.691,43.5264,33.8,86,40,15.66,scattered clouds
468,Bayir,TR,37.2687,28.2167,51.8,66,75,10.36,light rain
469,Bonavista,CA,48.6499,-53.1147,26.01,93,100,5.75,overcast clouds
470,Aldan,RU,58.6031,125.3894,-33.47,81,100,1.59,overcast clouds
471,Matamoros,MX,25.5333,-103.25,73.4,33,75,3.0,broken clouds
472,Chara,RU,56.9064,118.2631,-30.8,77,64,0.87,broken clouds
473,Ulladulla,AU,-35.35,150.4667,80.6,74,40,8.05,scattered clouds
474,Sydney,AU,-33.8679,151.2073,78.8,69,75,5.75,light rain
475,Kungurtug,RU,50.5994,97.5228,18.37,89,100,8.79,light snow
476,Olafsvik,IS,64.8945,-23.7142,29.35,97,100,18.41,light snow
477,Itarema,BR,-2.9248,-39.9167,79.09,83,79,11.81,broken clouds
478,Lompoc,US,34.6391,-120.4579,46.4,93,1,2.55,clear sky
479,Antalya,TR,36.7741,30.7178,46.0,56,0,8.05,clear sky
480,Edmond,US,35.6528,-97.4781,54.0,62,100,3.0,overcast clouds
481,Vao,NC,-22.6667,167.4833,76.35,74,41,20.15,scattered clouds
482,Eyl,SO,7.9803,49.8164,69.53,84,19,11.32,few clouds
483,Gweru,ZW,-19.45,29.8167,63.41,97,100,8.39,light rain
484,Arawa,PG,-6.2132,155.5367,88.2,62,62,10.04,light rain
485,Saint-Pierre,RE,-21.3393,55.4781,77.0,61,0,6.91,clear sky
486,Sant Feliu De Guixols,ES,41.7833,3.0333,51.01,93,20,2.3,mist
487,Fukue,JP,32.6881,128.8419,46.4,57,75,4.61,broken clouds
488,Khor,RU,47.8861,134.9464,-12.87,87,94,6.58,overcast clouds
489,Dzhebariki-Khaya,RU,62.2167,135.8,-44.01,75,74,1.61,broken clouds
490,Abha,SA,18.2164,42.5053,53.6,29,0,0.11,clear sky
491,Flin Flon,CA,54.7682,-101.865,12.69,96,100,6.24,light snow
492,Manhumirim,BR,-20.3578,-41.9581,67.21,88,43,3.89,scattered clouds
493,Gazimurskiy Zavod,RU,51.5461,118.3266,-18.11,81,0,1.68,clear sky
494,Tezu,IN,27.9167,96.1667,68.97,26,56,2.59,broken clouds
495,Itiuba,BR,-10.6917,-39.8536,70.5,85,100,5.01,overcast clouds
496,Grindavik,IS,63.8424,-22.4338,33.8,80,75,3.44,broken clouds
497,Gravelbourg,CA,49.8834,-106.5512,10.4,85,100,8.05,overcast clouds
498,Veraval,IN,20.9,70.3667,66.47,29,79,14.03,broken clouds
499,Khonsa,IN,27.0167,95.5667,58.95,75,4,3.27,clear sky
500,Kemin,KG,42.7846,75.6892,28.85,79,0,13.2,clear sky
501,Skjervoy,NO,70.0311,20.9714,18.23,89,4,15.7,clear sky
502,Lima,PE,-12.0432,-77.0282,75.99,78,0,11.5,clear sky
503,Florianopolis,BR,-27.6146,-48.5012,77.0,88,75,9.22,broken clouds
504,Tiznit,MA,29.5833,-9.5,58.1,51,0,0.45,clear sky
505,Ligayan,PH,4.6533,119.4706,81.0,80,100,15.48,overcast clouds
506,Rabo De Peixe,PT,37.8,-25.5833,59.0,94,20,10.36,few clouds
507,Wau,SS,7.7029,27.9953,71.78,19,60,7.65,broken clouds
508,Bud,US,39.447,-86.1758,27.0,79,55,6.22,broken clouds
509,Ust-Karsk,RU,52.7011,118.8077,-18.51,78,1,0.29,clear sky
510,Coquimbo,CL,-29.9533,-71.3436,62.6,88,75,1.14,broken clouds
511,Faratsiho,MG,-19.4,46.95,55.51,95,39,3.49,scattered clouds
512,Ziro,IN,27.6333,93.8333,47.07,67,31,1.48,scattered clouds
513,Jumla,NP,29.2747,82.1838,36.61,48,0,1.79,clear sky
514,Hohhot,CN,40.8106,111.6522,19.4,53,0,2.24,clear sky
515,Altar,MX,30.7,-111.8167,61.0,53,61,4.0,broken clouds
516,Dukat,RU,62.55,155.55,-28.59,82,100,5.1,overcast clouds
517,Chulman,RU,56.8479,124.9104,-34.13,79,100,1.7,overcast clouds
518,Ouesso,CG,1.6136,16.0517,72.9,89,99,2.8,overcast clouds
519,Lusaka,ZM,-15.4067,28.2871,62.73,92,100,0.85,overcast clouds
520,Stromness,GB,58.965,-3.296,37.4,75,26,12.66,scattered clouds
521,Araripe,BR,-7.2125,-40.0461,69.33,80,100,5.46,light rain
522,Kudahuvadhoo,MV,2.6708,72.8944,80.71,79,56,14.52,broken clouds
523,Indian Trail,US,35.0768,-80.6692,34.0,55,1,4.79,clear sky
524,Shiraz,IR,29.6036,52.5388,48.2,53,40,4.61,scattered clouds
525,Paamiut,GL,61.994,-49.6678,33.51,83,90,8.28,overcast clouds
526,Murgab,TM,37.4966,61.9714,44.6,53,90,9.22,overcast clouds
527,Sheridan,US,44.8333,-106.9173,36.0,69,75,3.44,broken clouds
528,Snyder,US,32.7179,-100.9176,53.6,66,1,11.5,clear sky
529,Clearlake,US,38.9582,-122.6264,45.0,89,94,1.01,overcast clouds
530,Sunbury,AU,-37.5833,144.7333,73.0,60,75,8.05,broken clouds
531,Belle Fourche,US,44.6714,-103.8522,45.0,36,1,8.05,clear sky
532,Coahuayana,MX,18.7333,-103.6833,73.27,75,100,1.52,overcast clouds
533,Le Vauclin,MQ,14.5452,-60.8388,77.0,78,75,6.91,broken clouds
534,Togur,RU,58.3631,82.8265,-32.55,83,0,6.24,clear sky
535,Turbat,PK,26.0023,63.044,54.86,41,0,1.16,clear sky
536,Farafangana,MG,-22.8167,47.8333,76.62,87,2,5.08,clear sky
537,Kochubey,RU,44.3861,46.5825,36.25,89,96,5.28,overcast clouds
538,Dunedin,NZ,-45.8742,170.5036,55.0,71,3,20.0,clear sky
539,Calhoun,US,42.2506,-85.0005,19.0,79,1,3.8,clear sky
540,Sibolga,ID,1.7427,98.7792,80.69,74,100,2.82,overcast clouds
541,Zhigansk,RU,66.7697,123.3711,-42.92,80,99,3.2,overcast clouds
542,Kudat,MY,6.8837,116.8477,80.6,83,40,6.91,scattered clouds
543,Canico,PT,32.6333,-16.85,59.0,82,20,5.75,few clouds
544,Kenai,US,60.5544,-151.2583,25.0,74,90,3.44,overcast clouds
545,Saint Anthony,US,45.0205,-93.218,25.0,58,75,8.05,broken clouds
546,Carira,BR,-10.3608,-37.7011,71.29,91,100,8.01,overcast clouds
547,Yasnyy,RU,51.0333,59.8742,16.05,97,100,9.98,overcast clouds
548,Nakhon Phanom,TH,17.3333,104.4167,77.0,64,0,6.91,haze
549,Aklavik,CA,68.2191,-135.0107,-27.4,68,94,2.3,overcast clouds
550,Maneadero,MX,31.7167,-116.5667,57.0,79,44,5.99,scattered clouds
551,Terney,RU,45.0503,136.6092,5.85,85,52,12.15,broken clouds
552,Manacapuru,BR,-3.2997,-60.6206,75.2,94,0,3.29,clear sky
553,Quatre Cocos,MU,-20.2078,57.7625,80.01,89,75,4.61,broken clouds
554,Kombissiri,BF,12.0656,-1.3375,71.6,23,0,5.75,clear sky
555,Phetchaburi,TH,12.9667,99.5833,78.01,84,99,6.22,overcast clouds
556,Consuegra,ES,39.4625,-3.608,53.01,92,67,7.0,broken clouds
557,Oksfjord,NO,70.2396,22.3479,19.4,67,90,6.91,overcast clouds
558,Lepley,RU,54.3092,42.8599,30.27,98,100,13.4,light snow
559,Okhotsk,RU,59.3833,143.3,-6.59,85,0,10.87,clear sky
560,Knysna,ZA,-34.0363,23.0471,57.2,88,0,5.75,clear sky
561,Sandy Bay,AU,-42.913,147.3532,72.0,64,75,10.36,broken clouds
562,Hambantota,LK,6.1241,81.1185,75.2,100,20,4.61,few clouds
563,Marawi,PH,7.9986,124.2928,80.01,81,67,3.0,broken clouds
564,Palmeiras De Goias,BR,-16.805,-49.9258,68.65,89,94,1.63,overcast clouds
565,Kamphaeng Phet,TH,16.25,99.5,80.56,45,78,11.01,broken clouds
566,Rapid Valley,US,44.0625,-103.1463,36.0,74,1,8.05,clear sky
567,San Vicente,AR,-26.6167,-54.1333,69.51,95,30,4.99,light rain
568,Tyukhtet,RU,56.5389,89.3011,-18.27,87,91,7.83,overcast clouds
569,Puerto Princesa,PH,9.7392,118.7353,86.0,62,20,23.02,few clouds
570,Santa Isabel Do Rio Negro,BR,-0.4139,-65.0192,75.43,73,30,2.51,scattered clouds
571,Coihaique,CL,-45.5752,-72.0662,46.4,76,0,2.3,clear sky
572,Rorvik,NO,64.8621,11.2373,24.78,96,97,4.65,light snow
573,Kloulklubed,PW,7.0419,134.2556,84.2,65,75,10.36,broken clouds
574,Kinablangan,PH,7.6947,126.5503,79.43,83,91,10.69,overcast clouds
575,Magangue,CO,9.242,-74.7547,78.17,65,88,6.35,overcast clouds
576,Vilhena,BR,-12.7406,-60.1458,69.42,98,92,4.03,overcast clouds
577,Thessalon,CA,46.2501,-83.5666,14.0,85,1,4.63,clear sky
578,Jalu,LY,29.0331,21.5482,53.83,71,0,9.86,clear sky
579,Lasa,IT,46.6166,10.7002,32.0,93,90,3.44,light snow
580,Antanifotsy,MG,-19.65,47.3167,57.67,93,97,2.66,overcast clouds
581,Severo-Yeniseyskiy,RU,60.3725,93.0408,-41.76,82,91,3.91,overcast clouds
582,Khorixas,NA,-20.3667,14.9667,68.27,55,98,3.74,overcast clouds
583,Tarakan,ID,3.3,117.6333,82.4,78,75,8.05,broken clouds
584,Stellenbosch,ZA,-33.9346,18.8668,64.99,88,40,4.61,scattered clouds
585,Santa Rosa,PH,14.3122,121.1114,82.99,57,40,11.5,scattered clouds
586,Nhulunbuy,AU,-12.2333,136.7667,89.6,62,40,14.97,scattered clouds
587,Trelew,AR,-43.249,-65.3051,56.71,55,0,9.55,clear sky
588,Bikin,RU,46.8161,134.26,-5.28,83,0,1.7,clear sky
589,Ukiah,US,39.1502,-123.2078,48.2,76,75,0.89,broken clouds
590,Talara,PE,-4.5772,-81.2719,75.18,77,36,14.07,scattered clouds
591,Tocopilla,CL,-22.092,-70.1979,66.88,56,0,3.71,clear sky
592,Zabol,AF,32.25,67.25,33.37,67,7,0.98,clear sky
593,Batticaloa,LK,7.7102,81.6924,78.82,83,11,7.14,few clouds
594,Dunmore East,IE,52.1514,-6.9861,44.01,89,100,14.0,moderate rain
595,Shagonar,RU,51.5333,92.8,22.21,88,93,3.87,overcast clouds
596,Salisbury,GB,51.0693,-1.7957,45.0,100,75,6.91,moderate rain
597,Pembroke,CA,45.8168,-77.1162,3.2,66,1,5.75,clear sky
598,Grand-Santi,GF,4.25,-54.3833,72.03,97,86,2.68,overcast clouds
599,Maragogi,BR,-9.0122,-35.2225,77.34,83,100,10.13,overcast clouds
600,Nava,MX,28.4167,-100.7667,61.0,74,20,1.99,few clouds
601,Mayo,US,38.8876,-76.5119,30.99,47,90,11.5,overcast clouds
602,Robertsport,LR,6.7533,-11.3686,79.25,86,1,6.24,clear sky
603,Terrace,CA,54.5163,-128.6035,19.4,79,90,24.16,snow
604,Jacareacanga,BR,-6.2222,-57.7528,74.5,87,100,1.77,overcast clouds
605,Trairi,BR,-3.2778,-39.2689,79.11,82,95,10.0,overcast clouds
606,Tual,ID,-5.6667,132.75,83.35,77,92,16.82,overcast clouds
607,Saint-Ambroise,CA,48.5501,-71.3324,7.0,72,88,10.36,overcast clouds
608,Saint-Joseph,RE,-21.3667,55.6167,77.0,61,0,6.91,clear sky
609,Key Largo,US,25.0865,-80.4473,69.01,77,1,12.71,clear sky
610,Riyadh,SA,24.6877,46.7219,62.6,25,52,10.36,broken clouds
611,Nova Olimpia,BR,-14.7972,-57.2881,73.2,89,97,4.05,overcast clouds
612,Kizukuri,JP,40.8061,140.3861,28.0,86,90,21.85,snow
613,Visby,SE,57.6409,18.296,30.2,80,90,19.57,overcast clouds
614,Suba,PH,10.8438,121.0102,79.0,79,30,38.23,scattered clouds
615,Henties Bay,NA,-22.116,14.2845,66.99,81,30,5.61,scattered clouds
616,Wanning,CN,18.8003,110.3967,70.86,79,82,11.25,broken clouds
617,Iskateley,RU,67.6803,53.1512,-8.05,85,100,16.31,overcast clouds
618,Povenets,RU,62.8487,34.8262,21.36,97,100,8.81,overcast clouds
619,Poyarkovo,RU,49.6,128.6833,-20.04,85,40,5.84,scattered clouds
620,Bambanglipuro,ID,-7.95,110.2833,82.67,72,100,4.23,moderate rain
621,Hualmay,PE,-11.0964,-77.6139,70.77,78,80,7.67,broken clouds
622,Zelenoborskiy,RU,66.845,32.3622,10.99,95,100,9.22,light snow
623,Vatava,RO,46.9667,24.7667,34.0,93,75,3.44,light rain
624,Powassan,CA,46.0334,-79.3496,5.0,78,90,3.44,overcast clouds
625,Mangrol,IN,21.1167,70.1167,62.71,33,67,11.39,broken clouds
626,Muyezerskiy,RU,63.9333,31.65,15.91,97,100,8.5,light snow
627,Comodoro Rivadavia,AR,-45.8667,-67.5,53.6,76,0,1.86,clear sky
628,Staryy Nadym,RU,65.6118,72.6842,-42.52,80,16,3.6,few clouds
629,Ryotsu,JP,38.0833,138.4333,33.8,75,75,26.46,light snow
630,Saginaw,US,43.3334,-84.0333,15.8,73,1,4.61,clear sky
631,Rincon,US,32.296,-81.2354,41.0,65,20,3.44,few clouds
632,Kaoma,ZM,-14.7833,24.8,62.91,95,50,2.71,scattered clouds
633,Ntungamo,UG,-0.8833,29.65,64.53,62,2,2.53,clear sky
634,Avera,US,33.194,-82.5271,35.6,80,1,4.03,clear sky
635,Port Moresby,PG,-9.4431,147.1797,84.2,74,75,13.8,broken clouds
636,Morant Bay,JM,17.8815,-76.4093,78.8,69,40,5.75,scattered clouds
637,Alausi,EC,-2.2,-78.8333,51.91,93,100,0.16,light rain
638,Maine-Soroa,NE,13.2114,12.0241,62.91,27,0,11.68,clear sky
639,Beyneu,KZ,45.3167,55.2,31.87,97,52,5.12,broken clouds
640,Moissala,TD,8.3404,17.7663,71.53,25,4,3.98,clear sky
641,Chiang Klang,TH,19.2938,100.8617,71.6,73,0,2.3,clear sky
642,Imbituba,BR,-28.24,-48.6703,77.0,88,75,9.22,broken clouds
643,Loa Janan,ID,-0.583,117.095,86.86,60,90,4.16,overcast clouds
644,Northam,GB,51.0333,-4.2167,48.0,95,100,8.01,moderate rain
645,Vung Tau,VN,10.346,107.0843,76.77,65,100,3.04,overcast clouds
646,Uporovo,RU,56.3109,66.2693,11.61,94,68,8.52,broken clouds
647,Salmas,IR,38.1973,44.7653,35.6,75,20,6.91,few clouds
648,Ovsyanka,RU,55.9575,92.5519,-2.2,78,40,11.18,snow
649,Belaya Gora,RU,68.5333,146.4167,-28.05,85,100,3.71,overcast clouds
650,Marzuq,YE,14.4,46.4667,54.77,38,0,1.99,clear sky
651,Senneterre,CA,48.3835,-77.2328,3.2,78,90,8.05,light snow
652,Jardim,BR,-21.4803,-56.1381,73.65,88,100,6.24,overcast clouds
653,Najran,SA,17.4924,44.1277,59.0,25,0,5.75,clear sky
654,Chichihualco,MX,17.6833,-99.65,65.95,44,75,2.48,broken clouds
655,Olavarria,AR,-36.8927,-60.3225,71.01,56,76,3.0,light rain
656,Acajutla,SV,13.5928,-89.8275,80.02,49,74,10.76,broken clouds
657,Dimitrovgrad,RU,54.2139,49.6184,24.8,93,90,8.95,overcast clouds
658,Husavik,IS,66.0449,-17.3389,32.0,59,90,10.36,overcast clouds
659,Myitkyina,MM,25.3833,97.4,68.61,41,0,2.95,clear sky
660,Fairbanks,US,64.8378,-147.7164,1.0,77,1,3.06,clear sky
661,Suntar,RU,62.1444,117.6319,-42.63,77,100,2.64,overcast clouds
662,College,US,64.8569,-147.8028,1.0,77,40,3.36,scattered clouds
663,Trebinje,BA,42.7119,18.3442,48.2,71,20,11.5,few clouds
664,Tilichiki,RU,60.4667,166.1,-0.92,94,100,11.72,overcast clouds
665,Kavieng,PG,-2.5744,150.7967,84.31,76,100,14.52,overcast clouds
666,Umm Kaddadah,SD,13.6017,26.6876,59.72,31,0,18.57,clear sky
667,Imeni Poliny Osipenko,RU,52.4201,136.4853,-4.36,90,100,9.01,overcast clouds
668,Katherine,AU,-14.4667,132.2667,84.2,70,90,12.66,overcast clouds
669,Ipora,BR,-16.4419,-51.1178,69.84,89,88,1.25,overcast clouds
670,Chiplun,IN,17.5333,73.5167,75.61,40,63,1.61,broken clouds
671,Kralendijk,BQ,12.15,-68.2667,77.0,78,0,10.36,clear sky
672,Kaspiyskiy,RU,45.3929,47.3707,34.5,90,94,5.57,overcast clouds
673,Iquitos,PE,-3.7481,-73.2472,77.0,94,75,2.51,broken clouds
674,Haines Junction,CA,60.7522,-137.5108,-9.4,84,100,1.14,overcast clouds
675,Miandrivazo,MG,-19.5167,45.4667,78.44,79,49,2.21,scattered clouds
676,Boa Vista,BR,2.8197,-60.6733,82.4,61,0,12.66,clear sky
677,Brigantine,US,39.4101,-74.3646,23.0,45,1,13.8,clear sky
678,Loyga,RU,61.0784,44.6075,17.71,97,100,6.24,light snow
679,Kashmor,PK,28.4333,69.5833,53.78,33,0,7.34,clear sky
680,Perevolotskiy,RU,51.8763,54.1938,27.39,99,99,4.65,overcast clouds
681,Nioro,GM,13.35,-15.75,69.31,20,0,4.63,clear sky
682,Waw,SS,7.7029,27.9953,71.78,19,60,7.65,broken clouds
683,Cordoba,AR,-31.4135,-64.1811,72.0,100,75,6.91,broken clouds
684,Ciro Marina,IT,39.3732,17.126,33.8,93,90,13.8,fog
685,Mapiripan,CO,2.8892,-72.1256,74.93,73,98,4.27,overcast clouds
686,Waingapu,ID,-9.6567,120.2641,84.61,73,100,17.52,overcast clouds
687,Bom Jesus,BR,-9.0744,-44.3586,73.71,72,21,2.15,few clouds
688,Belaya Kholunitsa,RU,58.84,50.8528,24.33,98,100,8.1,snow
689,Manta,EC,-0.95,-80.7333,80.6,78,75,4.61,light rain
690,Yima,CN,34.7381,111.8839,45.54,47,91,12.37,overcast clouds
691,Houma,US,29.5958,-90.7195,51.01,81,1,4.61,clear sky
692,Gombong,ID,-7.6072,109.5142,83.19,71,100,4.68,moderate rain
693,Mago,RU,53.2514,140.1822,-0.17,90,100,5.08,overcast clouds
694,Tautira,PF,-17.7333,-149.15,84.2,65,75,11.5,broken clouds
695,Palora,EC,-1.7,-77.9333,66.78,94,32,2.46,moderate rain
696,Nuuk,GL,64.1835,-51.7216,24.8,86,0,9.22,clear sky
697,Usoke,TZ,-5.1667,32.35,63.43,97,93,4.34,overcast clouds
698,Puerto Escondido,MX,15.85,-97.0667,80.6,83,90,9.22,overcast clouds
699,Angoche,MZ,-16.2325,39.9086,78.01,86,98,2.62,light rain
700,Villefranche-De-Rouergue,FR,44.3333,2.0,51.01,93,90,6.91,overcast clouds
701,Yeppoon,AU,-23.1333,150.7333,84.2,58,90,11.5,overcast clouds
702,Buala,SB,-8.145,159.5921,85.05,75,100,12.64,moderate rain
703,Palestine,PS,31.9216,35.2033,48.2,87,40,13.8,scattered clouds
